{"city": "wuhan", "coords": {"lat": 30.5928, "lon": 114.3055}, "fetched_at": "2026-03-23T23:00:13.800907", "daily": {"time": ["2026-03-24", "2026-03-25", "2026-03-26", "2026-03-27", "2026-03-28", "2026-03-29", "2026-03-30"], "temperature_2m_max": [17.4, 20.3, 17.8, 20.6, 19.4, 19.9, 21.4], "temperature_2m_min": [13.2, 10.9, 14.7, 12.5, 13.6, 14.7, 15.2], "precipitation_sum": [0.1, 0.1, 3.6, 0.0, 1.2, 1.5, 0.6], "weathercode": [61, 61, 80, 3, 61, 45, 61]}}
{"city": "new_york", "coords": {"lat": 40.7128, "lon": -74.006}, "fetched_at": "2026-03-23T23:00:19.983449", "daily": {"time": ["2026-03-23", "2026-03-24", "2026-03-25", "2026-03-26", "2026-03-27", "2026-03-28", "2026-03-29"], "temperature_2m_max": [9.8, 5.6, 9.9, 17.2, 14.6, 5.7, 8.8], "temperature_2m_min": [0.4, -0.3, 0.8, 7.4, 5.2, -1.4, 0.5], "precipitation_sum": [7.2, 0.0, 0.0, 1.0, 4.3, 0.0, 0.0], "weathercode": [63, 3, 3, 51, 53, 3, 3]}}
{"city": "london", "coords": {"lat": 51.5074, "lon": -0.1278}, "fetched_at": "2026-03-23T23:00:22.636829", "daily": {"time": ["2026-03-23", "2026-03-24", "2026-03-25", "2026-03-26", "2026-03-27", "2026-03-28", "2026-03-29"], "temperature_2m_max": [15.7, 13.4, 8.8, 10.1, 13.0, 10.6, 11.0], "temperature_2m_min": [5.6, 9.7, 5.2, 4.4, 6.5, 6.4, 5.8], "precipitation_sum": [0.0, 0.8, 0.28, 0.0, 1.8, 0.3, 0.3], "weathercode": [3, 51, 51, 3, 51, 51, 51]}}
{"city": "tokyo", "coords": {"lat": 35.6762, "lon": 139.6503}, "fetched_at": "2026-03-23T23:00:24.580490", "daily": {"time": ["2026-03-24", "2026-03-25", "2026-03-26", "2026-03-27", "2026-03-28", "2026-03-29", "2026-03-30"], "temperature_2m_max": [15.5, 14.4, 13.0, 18.5, 16.2, 19.5, 18.2], "temperature_2m_min": [6.8, 7.5, 9.3, 9.5, 11.2, 8.5, 8.9], "precipitation_sum": [0.0, 1.1, 3.4, 0.0, 8.1, 0.0, 0.0], "weathercode": [2, 53, 53, 3, 95, 3, 3]}}
{"city": "paris", "coords": {"lat": 48.8566, "lon": 2.3522}, "fetched_at": "2026-03-23T23:00:26.890055", "daily": {"time": ["2026-03-24", "2026-03-25", "2026-03-26", "2026-03-27", "2026-03-28", "2026-03-29", "2026-03-30"], "temperature_2m_max": [18.8, 11.5, 10.8, 10.9, 10.6, 10.9, 13.7], "temperature_2m_min": [8.8, 5.1, 2.6, 1.1, 5.4, 2.7, 5.3], "precipitation_sum": [0.0, 1.55, 0.4, 0.8, 7.0, 0.0, 1.5], "weathercode": [3, 80, 3, 61, 61, 3, 61]}}
{"city": "berlin", "coords": {"lat": 52.52, "lon": 13.405}, "fetched_at": "2026-03-23T23:00:28.883860", "daily": {"time": ["2026-03-24", "2026-03-25", "2026-03-26", "2026-03-27", "2026-03-28", "2026-03-29", "2026-03-30"], "temperature_2m_max": [16.3, 12.3, 9.6, 9.3, 8.0, 10.3, 8.8], "temperature_2m_min": [6.6, 3.9, 0.5, -0.4, 3.5, 1.5, 1.1], "precipitation_sum": [0.0, 0.88, 0.2, 0.0, 1.5, 0.0, 5.1], "weathercode": [3, 61, 3, 3, 61, 3, 80]}}
{"city": "moscow", "coords": {"lat": 55.7558, "lon": 37.6173}, "fetched_at": "2026-03-23T23:00:30.585064", "daily": {"time": ["2026-03-24", "2026-03-25", "2026-03-26", "2026-03-27", "2026-03-28", "2026-03-29", "2026-03-30"], "temperature_2m_max": [12.0, 12.8, 11.9, 13.4, 14.6, 15.4, 15.1], "temperature_2m_min": [-2.2, 0.6, -1.0, 0.9, 0.3, 4.2, 2.7], "precipitation_sum": [0.0, 0.0, 0.0, 0.0, 0.0, 0.0, 0.0], "weathercode": [2, 2, 2, 2, 45, 3, 3]}}
{"city": "sydney", "coords": {"lat": -33.8688, "lon": 151.2093}, "fetched_at": "2026-03-23T23:00:32.142015", "daily": {"time": ["2026-03-24", "2026-03-25", "2026-03-26", "2026-03-27", "2026-03-28", "2026-03-29", "2026-03-30"], "temperature_2m_max": [26.9, 28.1, 31.4, 19.8, 22.0, 22.6, 25.4], "temperature_2m_min": [17.8, 16.4, 14.8, 12.8, 10.3, 13.6, 14.0], "precipitation_sum": [0.0, 0.0, 3.5, 3.9, 0.0, 0.0, 0.0], "weathercode": [45, 45, 80, 61, 2, 2, 2]}}
{"city": "mumbai", "coords": {"lat": 19.076, "lon": 72.8777}, "fetched_at": "2026-03-23T23:00:33.671986", "daily": {"time": ["2026-03-24", "2026-03-25", "2026-03-26", "2026-03-27", "2026-03-28", "2026-03-29", "2026-03-30"], "temperature_2m_max": [29.3, 28.2, 28.9, 29.3, 28.3, 27.5, 28.4], "temperature_2m_min": [27.2, 26.9, 27.1, 27.7, 26.8, 26.6, 27.0], "precipitation_sum": [0.0, 0.0, 0.0, 0.0, 0.0, 0.0, 0.0], "weathercode": [2, 3, 2, 0, 2, 2, 2]}}
{"city": "singapore", "coords": {"lat": 1.3521, "lon": 103.8198}, "fetched_at": "2026-03-23T23:00:35.020540", "daily": {"time": ["2026-03-24", "2026-03-25", "2026-03-26", "2026-03-27", "2026-03-28", "2026-03-29", "2026-03-30"], "temperature_2m_max": [34.7, 34.5, 34.7, 34.0, 33.1, 32.1, 34.2], "temperature_2m_min": [24.6, 24.9, 24.5, 24.4, 25.2, 25.1, 25.2], "precipitation_sum": [0.0, 0.1, 0.0, 0.0, 0.0, 0.0, 0.0], "weathercode": [3, 3, 3, 3, 3, 3, 3]}}
{"city": "dubai", "coords": {"lat": 25.2048, "lon": 55.2708}, "fetched_at": "2026-03-23T23:00:36.739120", "daily": {"time": ["2026-03-24", "2026-03-25", "2026-03-26", "2026-03-27", "2026-03-28", "2026-03-29", "2026-03-30"], "temperature_2m_max": [26.5, 23.6, 29.9, 26.4, 24.2, 24.4, 25.5], "temperature_2m_min": [21.4, 22.2, 22.6, 22.4, 22.0, 21.6, 21.3], "precipitation_sum": [16.5, 32.1, 5.3, 54.0, 0.0, 0.0, 0.0], "weathercode": [96, 96, 96, 96, 2, 3, 3]}}
{"city": "hong_kong", "coords": {"lat": 22.3193, "lon": 114.1694}, "fetched_at": "2026-03-23T23:00:38.151519", "daily": {"time": ["2026-03-24", "2026-03-25", "2026-03-26", "2026-03-27", "2026-03-28", "2026-03-29", "2026-03-30"], "temperature_2m_max": [26.6, 29.3, 26.0, 27.6, 25.3, 25.7, 26.5], "temperature_2m_min": [20.7, 19.6, 21.3, 21.1, 20.9, 21.4, 22.2], "precipitation_sum": [0.0, 0.0, 0.0, 0.0, 0.0, 0.0, 3.6], "weathercode": [2, 45, 3, 45, 3, 3, 95]}}
{"city": "taipei", "coords": {"lat": 25.033, "lon": 121.5654}, "fetched_at": "2026-03-23T23:00:39.759162", "daily": {"time": ["2026-03-24", "2026-03-25", "2026-03-26", "2026-03-27", "2026-03-28", "2026-03-29", "2026-03-30"], "temperature_2m_max": [27.1, 23.8, 26.9, 24.9, 21.1, 25.6, 29.4], "temperature_2m_min": [19.9, 18.8, 18.7, 18.9, 18.5, 19.1, 19.0], "precipitation_sum": [0.0, 0.0, 0.0, 0.0, 0.0, 0.0, 9.0], "weathercode": [3, 45, 3, 3, 3, 3, 80]}}
{"city": "seoul", "coords": {"lat": 37.5665, "lon": 126.978}, "fetched_at": "2026-03-23T23:00:41.110707", "daily": {"time": ["2026-03-24", "2026-03-25", "2026-03-26", "2026-03-27", "2026-03-28", "2026-03-29", "2026-03-30"], "temperature_2m_max": [14.1, 16.1, 15.1, 19.0, 20.5, 20.3, 18.9], "temperature_2m_min": [3.6, 4.6, 3.4, 4.7, 4.9, 3.1, 5.7], "precipitation_sum": [0.0, 0.0, 0.0, 0.0, 0.0, 0.0, 0.0], "weathercode": [2, 1, 3, 45, 45, 3, 3]}}
{"city": "bangkok", "coords": {"lat": 13.7563, "lon": 100.5018}, "fetched_at": "2026-03-23T23:00:42.418603", "daily": {"time": ["2026-03-24", "2026-03-25", "2026-03-26", "2026-03-27", "2026-03-28", "2026-03-29", "2026-03-30"], "temperature_2m_max": [33.8, 34.3, 34.8, 34.7, 34.6, 34.6, 34.1], "temperature_2m_min": [27.2, 27.4, 27.0, 27.7, 27.3, 27.3, 26.8], "precipitation_sum": [0.7, 0.8, 0.2, 0.6, 0.0, 0.0, 0.0], "weathercode": [80, 80, 2, 80, 2, 2, 2]}}
{"city": "manila", "coords": {"lat": 14.5995, "lon": 120.9842}, "fetched_at": "2026-03-23T23:00:44.855614", "daily": {"time": ["2026-03-24", "2026-03-25", "2026-03-26", "2026-03-27", "2026-03-28", "2026-03-29", "2026-03-30"], "temperature_2m_max": [28.1, 29.1, 29.2, 29.7, 29.2, 29.8, 29.3], "temperature_2m_min": [25.0, 24.6, 25.9, 25.9, 25.6, 25.6, 25.5], "precipitation_sum": [0.0, 0.0, 0.0, 0.0, 0.0, 0.0, 0.0], "weathercode": [2, 2, 2, 2, 2, 1, 1]}}
{"city": "kuala_lumpur", "coords": {"lat": 3.139, "lon": 101.6869}, "fetched_at": "2026-03-23T23:00:46.124707", "daily": {"time": ["2026-03-24", "2026-03-25", "2026-03-26", "2026-03-27", "2026-03-28", "2026-03-29", "2026-03-30"], "temperature_2m_max": [34.6, 34.3, 34.1, 34.6, 35.1, 34.7, 34.3], "temperature_2m_min": [25.7, 26.0, 25.2, 24.7, 25.3, 24.9, 24.7], "precipitation_sum": [0.0, 0.1, 0.1, 0.0, 0.0, 0.3, 3.0], "weathercode": [3, 3, 3, 3, 3, 3, 80]}}
{"city": "hanoi", "coords": {"lat": 21.0285, "lon": 105.8542}, "fetched_at": "2026-03-23T23:00:47.382246", "daily": {"time": ["2026-03-24", "2026-03-25", "2026-03-26", "2026-03-27", "2026-03-28", "2026-03-29", "2026-03-30"], "temperature_2m_max": [30.3, 29.1, 31.4, 30.9, 30.6, 32.7, 35.0], "temperature_2m_min": [22.5, 22.5, 22.5, 22.8, 23.0, 24.1, 23.7], "precipitation_sum": [0.0, 0.0, 0.0, 0.0, 0.0, 0.9, 0.0], "weathercode": [3, 3, 3, 3, 3, 3, 45]}}
