{"city": "beijing", "coords": {"lat": 39.9042, "lon": 116.4074}, "fetched_at": "2026-03-25T12:49:04.924844", "daily": {"time": ["2026-03-25", "2026-03-26", "2026-03-27", "2026-03-28", "2026-03-29", "2026-03-30", "2026-03-31"], "temperature_2m_max": [24.9, 24.5, 21.1, 18.2, 22.0, 17.6, 20.3], "temperature_2m_min": [8.8, 10.2, 12.5, 7.7, 8.8, 8.9, 7.6], "precipitation_sum": [0.0, 0.0, 0.0, 0.3, 0.0, 0.0, 0.0], "weathercode": [2, 3, 3, 3, 2, 2, 3]}}
{"city": "shanghai", "coords": {"lat": 31.2304, "lon": 121.4737}, "fetched_at": "2026-03-25T12:49:07.685155", "daily": {"time": ["2026-03-25", "2026-03-26", "2026-03-27", "2026-03-28", "2026-03-29", "2026-03-30", "2026-03-31"], "temperature_2m_max": [18.3, 18.9, 13.8, 21.9, 23.7, 16.6, 15.3], "temperature_2m_min": [8.1, 9.1, 10.2, 8.6, 10.8, 11.6, 8.6], "precipitation_sum": [0.0, 0.0, 5.3, 0.0, 0.3, 6.6, 0.0], "weathercode": [3, 3, 61, 3, 61, 61, 3]}}
{"city": "chongqing", "coords": {"lat": 29.4316, "lon": 106.9123}, "fetched_at": "2026-03-25T12:49:08.997912", "daily": {"time": ["2026-03-25", "2026-03-26", "2026-03-27", "2026-03-28", "2026-03-29", "2026-03-30", "2026-03-31"], "temperature_2m_max": [15.8, 20.3, 18.1, 16.2, 16.9, 19.0, 19.6], "temperature_2m_min": [13.1, 14.1, 13.6, 14.6, 13.9, 14.4, 14.9], "precipitation_sum": [0.7, 0.4, 1.3, 20.2, 0.0, 2.1, 12.3], "weathercode": [61, 61, 61, 63, 3, 61, 61]}}
{"city": "shenzhen", "coords": {"lat": 22.5431, "lon": 114.0579}, "fetched_at": "2026-03-25T12:49:10.531879", "daily": {"time": ["2026-03-25", "2026-03-26", "2026-03-27", "2026-03-28", "2026-03-29", "2026-03-30", "2026-03-31"], "temperature_2m_max": [27.6, 26.4, 27.0, 27.1, 26.1, 26.6, 25.9], "temperature_2m_min": [22.4, 22.9, 22.6, 22.9, 23.1, 23.6, 23.4], "precipitation_sum": [0.0, 0.0, 0.0, 0.0, 1.8, 0.0, 1.8], "weathercode": [2, 3, 3, 3, 80, 3, 80]}}
{"city": "guangzhou", "coords": {"lat": 23.1291, "lon": 113.2644}, "fetched_at": "2026-03-25T12:49:12.940852", "daily": {"time": ["2026-03-25", "2026-03-26", "2026-03-27", "2026-03-28", "2026-03-29", "2026-03-30", "2026-03-31"], "temperature_2m_max": [30.8, 29.2, 29.8, 29.0, 28.3, 28.6, 24.1], "temperature_2m_min": [22.2, 22.3, 22.1, 22.9, 23.0, 23.2, 21.0], "precipitation_sum": [0.0, 0.0, 0.0, 1.7, 3.6, 19.8, 34.8], "weathercode": [3, 3, 3, 80, 80, 96, 95]}}
{"city": "chengdu", "coords": {"lat": 30.5728, "lon": 104.0668}, "fetched_at": "2026-03-25T12:49:16.025620", "daily": {"time": ["2026-03-25", "2026-03-26", "2026-03-27", "2026-03-28", "2026-03-29", "2026-03-30", "2026-03-31"], "temperature_2m_max": [17.6, 23.0, 22.1, 20.6, 19.1, 21.1, 23.9], "temperature_2m_min": [14.5, 12.9, 15.3, 14.0, 14.7, 14.2, 11.6], "precipitation_sum": [3.2, 0.4, 2.3, 0.7, 1.2, 0.0, 0.3], "weathercode": [61, 80, 80, 61, 61, 61, 3]}}
{"city": "wuhan", "coords": {"lat": 30.5928, "lon": 114.3055}, "fetched_at": "2026-03-25T12:49:17.537170", "daily": {"time": ["2026-03-25", "2026-03-26", "2026-03-27", "2026-03-28", "2026-03-29", "2026-03-30", "2026-03-31"], "temperature_2m_max": [20.2, 17.4, 22.1, 22.0, 20.6, 22.5, 21.6], "temperature_2m_min": [10.4, 14.9, 12.1, 13.6, 13.7, 13.4, 11.1], "precipitation_sum": [0.1, 0.1, 0.0, 0.0, 6.3, 1.5, 0.0], "weathercode": [3, 3, 3, 3, 61, 61, 3]}}
{"city": "hangzhou", "coords": {"lat": 30.2741, "lon": 120.1551}, "fetched_at": "2026-03-25T12:49:20.682056", "daily": {"time": ["2026-03-25", "2026-03-26", "2026-03-27", "2026-03-28", "2026-03-29", "2026-03-30", "2026-03-31"], "temperature_2m_max": [19.6, 16.0, 14.4, 20.4, 23.1, 17.4, 15.1], "temperature_2m_min": [10.5, 10.7, 11.4, 9.7, 13.2, 15.2, 9.6], "precipitation_sum": [0.0, 0.2, 3.5, 0.0, 3.6, 28.2, 0.0], "weathercode": [45, 3, 80, 3, 61, 63, 3]}}
{"city": "nanjing", "coords": {"lat": 32.0603, "lon": 118.7969}, "fetched_at": "2026-03-25T12:49:22.392128", "daily": {"time": ["2026-03-25", "2026-03-26", "2026-03-27", "2026-03-28", "2026-03-29", "2026-03-30", "2026-03-31"], "temperature_2m_max": [20.0, 19.9, 19.2, 21.1, 22.9, 18.9, 17.3], "temperature_2m_min": [8.1, 12.1, 11.3, 10.3, 11.9, 12.6, 9.8], "precipitation_sum": [0.0, 0.2, 1.5, 0.0, 0.3, 4.2, 0.0], "weathercode": [45, 61, 61, 3, 61, 61, 3]}}
{"city": "london", "coords": {"lat": 51.5074, "lon": -0.1278}, "fetched_at": "2026-03-25T12:49:25.268702", "daily": {"time": ["2026-03-25", "2026-03-26", "2026-03-27", "2026-03-28", "2026-03-29", "2026-03-30", "2026-03-31"], "temperature_2m_max": [9.2, 10.1, 11.4, 9.8, 10.9, 12.5, 15.3], "temperature_2m_min": [4.4, 3.0, 6.6, 4.0, 3.1, 7.6, 9.4], "precipitation_sum": [2.9, 0.0, 3.6, 0.0, 1.0, 0.2, 0.0], "weathercode": [53, 3, 53, 3, 51, 51, 3]}}
{"city": "tokyo", "coords": {"lat": 35.6762, "lon": 139.6503}, "fetched_at": "2026-03-25T12:49:26.779407", "daily": {"time": ["2026-03-25", "2026-03-26", "2026-03-27", "2026-03-28", "2026-03-29", "2026-03-30", "2026-03-31"], "temperature_2m_max": [10.0, 12.0, 16.1, 18.6, 20.3, 20.0, 19.1], "temperature_2m_min": [6.4, 8.0, 7.3, 8.4, 8.5, 11.1, 14.4], "precipitation_sum": [8.7, 14.8, 0.0, 0.1, 0.0, 1.2, 6.6], "weathercode": [61, 63, 2, 51, 3, 45, 80]}}
{"city": "paris", "coords": {"lat": 48.8566, "lon": 2.3522}, "fetched_at": "2026-03-25T12:49:28.278360", "daily": {"time": ["2026-03-25", "2026-03-26", "2026-03-27", "2026-03-28", "2026-03-29", "2026-03-30", "2026-03-31"], "temperature_2m_max": [11.8, 10.4, 10.3, 12.4, 12.8, 11.3, 12.4], "temperature_2m_min": [6.5, 3.8, 3.9, 5.1, 2.2, 7.3, 6.7], "precipitation_sum": [1.8, 0.2, 1.5, 4.1, 0.0, 0.0, 0.0], "weathercode": [80, 61, 61, 61, 3, 3, 3]}}
{"city": "berlin", "coords": {"lat": 52.52, "lon": 13.405}, "fetched_at": "2026-03-25T12:49:30.113549", "daily": {"time": ["2026-03-25", "2026-03-26", "2026-03-27", "2026-03-28", "2026-03-29", "2026-03-30", "2026-03-31"], "temperature_2m_max": [13.1, 8.4, 8.7, 10.6, 10.5, 9.1, 10.0], "temperature_2m_min": [5.4, 2.0, -0.3, 1.1, 0.8, 4.1, 2.2], "precipitation_sum": [0.7, 0.1, 0.0, 0.9, 0.0, 4.75, 3.2], "weathercode": [80, 80, 3, 61, 3, 80, 80]}}
{"city": "moscow", "coords": {"lat": 55.7558, "lon": 37.6173}, "fetched_at": "2026-03-25T12:49:31.449357", "daily": {"time": ["2026-03-25", "2026-03-26", "2026-03-27", "2026-03-28", "2026-03-29", "2026-03-30", "2026-03-31"], "temperature_2m_max": [12.2, 11.5, 10.2, 13.9, 12.2, 11.6, 9.0], "temperature_2m_min": [-0.4, -0.8, 1.6, 3.1, 1.5, 4.4, 6.1], "precipitation_sum": [0.0, 0.0, 0.4, 0.0, 0.0, 2.1, 2.1], "weathercode": [2, 3, 61, 45, 3, 61, 61]}}
{"city": "sydney", "coords": {"lat": -33.8688, "lon": 151.2093}, "fetched_at": "2026-03-25T12:49:32.731529", "daily": {"time": ["2026-03-25", "2026-03-26", "2026-03-27", "2026-03-28", "2026-03-29", "2026-03-30", "2026-03-31"], "temperature_2m_max": [29.5, 30.2, 20.1, 21.9, 23.6, 24.7, 25.9], "temperature_2m_min": [16.5, 17.6, 12.2, 14.5, 12.7, 13.7, 14.1], "precipitation_sum": [0.7, 8.2, 21.7, 0.0, 0.0, 0.0, 0.0], "weathercode": [80, 95, 80, 3, 3, 2, 2]}}
{"city": "mumbai", "coords": {"lat": 19.076, "lon": 72.8777}, "fetched_at": "2026-03-25T12:49:34.373779", "daily": {"time": ["2026-03-25", "2026-03-26", "2026-03-27", "2026-03-28", "2026-03-29", "2026-03-30", "2026-03-31"], "temperature_2m_max": [28.5, 29.3, 29.2, 28.3, 27.8, 28.5, 28.7], "temperature_2m_min": [27.4, 27.4, 28.2, 27.1, 27.0, 26.9, 27.6], "precipitation_sum": [0.0, 0.0, 0.0, 0.0, 0.0, 0.0, 0.0], "weathercode": [3, 2, 2, 2, 2, 3, 2]}}
{"city": "singapore", "coords": {"lat": 1.3521, "lon": 103.8198}, "fetched_at": "2026-03-25T12:49:35.845897", "daily": {"time": ["2026-03-25", "2026-03-26", "2026-03-27", "2026-03-28", "2026-03-29", "2026-03-30", "2026-03-31"], "temperature_2m_max": [33.5, 34.8, 34.2, 33.6, 33.7, 33.7, 34.2], "temperature_2m_min": [25.0, 24.6, 25.1, 25.1, 25.3, 25.5, 25.4], "precipitation_sum": [0.0, 0.0, 0.0, 0.1, 0.0, 0.0, 0.6], "weathercode": [3, 3, 3, 3, 3, 3, 3]}}
{"city": "dubai", "coords": {"lat": 25.2048, "lon": 55.2708}, "fetched_at": "2026-03-25T12:49:37.393947", "daily": {"time": ["2026-03-25", "2026-03-26", "2026-03-27", "2026-03-28", "2026-03-29", "2026-03-30", "2026-03-31"], "temperature_2m_max": [24.4, 28.5, 26.9, 24.2, 24.1, 25.1, 25.4], "temperature_2m_min": [21.4, 22.3, 22.0, 22.2, 21.8, 22.0, 20.6], "precipitation_sum": [19.1, 15.0, 28.7, 0.0, 0.0, 0.0, 0.3], "weathercode": [96, 95, 96, 3, 3, 3, 80]}}
{"city": "taipei", "coords": {"lat": 25.033, "lon": 121.5654}, "fetched_at": "2026-03-25T12:49:40.054835", "daily": {"time": ["2026-03-25", "2026-03-26", "2026-03-27", "2026-03-28", "2026-03-29", "2026-03-30", "2026-03-31"], "temperature_2m_max": [23.5, 23.5, 21.8, 20.9, 27.7, 28.8, 23.2], "temperature_2m_min": [18.1, 17.3, 19.0, 18.8, 18.2, 20.4, 17.3], "precipitation_sum": [0.0, 0.0, 2.6, 0.0, 0.0, 0.6, 20.7], "weathercode": [3, 3, 80, 3, 3, 3, 80]}}
{"city": "seoul", "coords": {"lat": 37.5665, "lon": 126.978}, "fetched_at": "2026-03-25T12:49:41.459059", "daily": {"time": ["2026-03-25", "2026-03-26", "2026-03-27", "2026-03-28", "2026-03-29", "2026-03-30", "2026-03-31"], "temperature_2m_max": [16.6, 13.3, 11.8, 19.1, 19.3, 19.2, 17.8], "temperature_2m_min": [4.2, 2.6, 3.2, 5.6, 5.2, 6.8, 6.5], "precipitation_sum": [0.0, 0.0, 0.0, 0.0, 0.0, 0.0, 0.0], "weathercode": [3, 3, 3, 3, 3, 3, 3]}}
{"city": "bangkok", "coords": {"lat": 13.7563, "lon": 100.5018}, "fetched_at": "2026-03-25T12:49:42.749102", "daily": {"time": ["2026-03-25", "2026-03-26", "2026-03-27", "2026-03-28", "2026-03-29", "2026-03-30", "2026-03-31"], "temperature_2m_max": [34.4, 34.5, 34.4, 35.3, 34.8, 34.3, 35.2], "temperature_2m_min": [27.6, 27.1, 27.1, 27.0, 27.1, 26.5, 26.9], "precipitation_sum": [0.0, 0.0, 0.0, 0.0, 0.0, 0.0, 0.0], "weathercode": [2, 2, 2, 2, 2, 2, 2]}}
{"city": "jakarta", "coords": {"lat": -6.2088, "lon": 106.8456}, "fetched_at": "2026-03-25T12:49:44.068191", "daily": {"time": ["2026-03-25", "2026-03-26", "2026-03-27", "2026-03-28", "2026-03-29", "2026-03-30", "2026-03-31"], "temperature_2m_max": [31.5, 29.8, 29.8, 30.1, 30.6, 33.0, 32.0], "temperature_2m_min": [24.4, 25.4, 24.8, 25.2, 24.9, 25.9, 25.6], "precipitation_sum": [5.1, 12.4, 10.3, 7.7, 9.6, 8.4, 5.1], "weathercode": [95, 95, 95, 95, 80, 95, 80]}}
{"city": "manila", "coords": {"lat": 14.5995, "lon": 120.9842}, "fetched_at": "2026-03-25T12:49:45.390993", "daily": {"time": ["2026-03-25", "2026-03-26", "2026-03-27", "2026-03-28", "2026-03-29", "2026-03-30", "2026-03-31"], "temperature_2m_max": [28.7, 29.0, 29.3, 29.5, 29.7, 29.0, 28.9], "temperature_2m_min": [24.6, 26.1, 25.9, 25.7, 26.2, 25.9, 25.6], "precipitation_sum": [0.0, 0.2, 0.0, 0.0, 0.0, 0.0, 0.0], "weathercode": [2, 2, 2, 2, 3, 2, 1]}}
{"city": "kuala_lumpur", "coords": {"lat": 3.139, "lon": 101.6869}, "fetched_at": "2026-03-25T12:49:47.646105", "daily": {"time": ["2026-03-25", "2026-03-26", "2026-03-27", "2026-03-28", "2026-03-29", "2026-03-30", "2026-03-31"], "temperature_2m_max": [34.8, 34.2, 34.9, 34.0, 34.4, 36.1, 34.8], "temperature_2m_min": [25.6, 25.4, 25.1, 26.5, 25.4, 25.6, 25.2], "precipitation_sum": [0.0, 0.1, 0.0, 0.4, 0.9, 0.3, 3.9], "weathercode": [3, 3, 3, 80, 80, 80, 95]}}
{"city": "hanoi", "coords": {"lat": 21.0285, "lon": 105.8542}, "fetched_at": "2026-03-25T12:49:48.974247", "daily": {"time": ["2026-03-25", "2026-03-26", "2026-03-27", "2026-03-28", "2026-03-29", "2026-03-30", "2026-03-31"], "temperature_2m_max": [28.3, 32.0, 31.8, 30.9, 33.2, 34.5, 32.6], "temperature_2m_min": [22.6, 22.3, 22.5, 23.1, 23.5, 23.7, 23.4], "precipitation_sum": [0.0, 0.0, 0.0, 0.0, 1.5, 0.0, 0.0], "weathercode": [3, 3, 3, 3, 80, 45, 45]}}
